Station Name,Latitude,Longitude,Bikes Available
Queen St E / Woodward Ave,43.665269,-79.319796,15
Primrose Ave / Davenport Rd,43.67142,-79.445947,0
Queen St. E / Rhodes Ave.,43.666224,-79.317693,16
Bond St / Queen St E,43.653236,-79.376716,1
Church St / Alexander St,43.663722,-79.380288,7
University Ave / Gerrard St W (East Side),43.657763,-79.389165,21
Edward St / Yonge St,43.656729,-79.382736,1
Euclid Ave / Bloor St W,43.664467,-79.414783,12
Yonge St / Aylmer Ave,43.675492,-79.388858,3
Davenport Rd / Avenue Rd,43.674991,-79.396273,4
Yonge St / Yorkville Ave,43.671944,-79.387778,2
Dundas St E / Broadview Ave,43.662365,-79.351104,16
Front St W / Yonge St (Hockey Hall of Fame),43.646144,-79.377962,34
Gerrard St E / River St,43.663993,-79.358534,7
Jarvis St / Dundas St E,43.657266,-79.374756,3
Logan Av / Gerrard St E,43.6672144,-79.3452697,14
Regal Rd / Dufferin St,43.673939,-79.441159,0
Morse St / Eastern Ave,43.657991,-79.340075,5
Alton Ave / Dundas St E (Greenwood Park),43.66745,-79.329408,20
Blake St / Boultbee Ave,43.672453,-79.338259,9
Eastern Ave / Winnifred Ave,43.6592088,-79.3348396,14
Gamble Ave / Broadview Ave,43.689211,-79.35438,7
111 Bond St (North of Dundas St E)  - SMART,43.656927,-79.378497,10
Dundas St E / Pembroke St - SMART,43.658295,-79.372346,1
Victoria Park Subway Station - SMART,43.6940155,-79.2889842,0
Wychwood Ave / Benson Ave - SMART,43.6809164,-79.4229684,0
Lawton Blvd / Yonge St,43.6910667,-79.39535,0
Yonge St / Davisville Ave,43.6975969,-79.39654,0
Fort York  Blvd / Capreol Ct,43.639832,-79.395954,18
St. George St / Bloor St W,43.667333,-79.399429,2
King St W / York St,43.6480008,-79.383177,3
University Ave / Elm St,43.656518,-79.389099,1
Rosehill Ave / Avoca Ave - SMART,43.687999,-79.38906,2
Bloor St W / Dundas St W,43.6563889,-79.45166666666667,2
Bathurst St / Fort York Blvd,43.639179,-79.399595,7
Spadina Ave / Willcocks St,43.6616667,-79.40138888888889,1
Cariboo Ave / Railpath Trail,43.66666667,-79.45833333333334,5
Dundas St W / Edna Ave,43.657192,-79.452559,5
College St / Major St,43.6576,-79.4032,10
McGill St / Church St,43.660694,-79.379052,1
Queens Quay W / Dan Leckie Way,43.636533,-79.395854,23
College Park South,43.659777,-79.382767,2
25 York St – Union Station South,43.643667,-79.380414,8
161 Bleecker St (South of Wellesley),43.666233,-79.373327,0
Spadina Ave / Fort York Blvd,43.640114,-79.393249,7
Augusta Ave / Denison Sq,43.653766,-79.4016759,11
Lansdowne Ave / Whytock Ave,43.6538888888889,-79.4413888888889,4
Sterling Rd / Dundas St W,43.6508333333333,-79.4430555555556,1
St Clarens Ave / College St,43.651238,-79.43868,0
Ossington Ave / College St,43.6544915,-79.422634,2
High Park Subway Station,43.6543604,-79.4655296,5
Lake Shore Blvd W / Ellis Ave,43.635932,-79.465083,14
Parkside Dr / Bloor St W - SMART,43.654501,-79.460053,8
Lake Shore Blvd W / Windermere Ave,43.634896,-79.467763,14
Martin Goodman Trail (Marilyn Bell Park),43.6314,-79.4304,20
Lake Shore Blvd W / The Boulevard Club,43.636731,-79.444966,13
Dundas St W / Roncesvalles Ave Green P -SMART,43.6534268,-79.4512787,2
Erskine Ave / Yonge St SMART,43.7112153,-79.39894,0
D'Arcy St / McCaul St - SMART,43.655227,-79.39201,12
Mortimer Ave / Carlaw Ave SMART,43.685167,-79.34962,1
Cumberland St / Bay St SMART,43.6704537,-79.39014,0
20 Charles St E,43.6691099,-79.38551,0
Niagara St / Tecumseth St,43.641389,-79.404444,14
424 Wellington St W,43.643834,-79.396649,11
Dundas St W / St. Patrick St,43.6545174,-79.3895315,10
Robert St / Bloor St W - SMART,43.665846,-79.404998,3
John St  / Mercer St - SMART,43.6461,-79.3895,2
Queen St E / Hammersmith Ave,43.671349,-79.29451,8
Queen St. E / Eastern Ave,43.667208,-79.312315,6
Hubbard Blvd / Balsam Av,43.669328,-79.288949,16
Queen St. E / Spruce Hill Rd.,43.672571,-79.289,15
Lower Spadina Ave / Lake Shore Blvd W,43.638497,-79.39192,13
Lower Coxwell Ave /  Lake Shore Blvd E,43.662771,-79.315223,12
Amelia St. / Sumach St.,43.66852,-79.363525,7
Augusta Ave / Dundas St W,43.652473,-79.401456,13
Queen St W / Ossington Ave,43.643975,-79.419576,23
Trinity St /Front St E,43.651318,-79.36023,12
Dundas St W / Yonge St,43.656094,-79.381484,22
Kendal Ave / Spadina Rd,43.670318,-79.405181,1
Davenport Rd / Bathurst St,43.676667,-79.416111,2
Queen St W / Close Ave,43.640634,-79.435841,4
King St W / Joe Shuster Way,43.639444,-79.423611,20
Yarmouth Rd / Christie St,43.67,-79.42083333333333,0
Palmerston Ave / Vermont Ave,43.671389,-79.416389,3
Christie St / Benson Ave (Wychwood Barns),43.68,-79.42500000000001,0
King St W / Fraser Ave,43.6394444,-79.42527777777778,15
Macpherson Ave / Spadina Rd,43.675791,-79.40698,2
Bridgman Ave / Kendal Ave,43.675556,-79.410278,0
Bridgman Ave / Bathurst St,43.674444,-79.414722,0
Kendal Ave / Bernard Ave,43.671513,-79.408317,2
Pretoria Ave / Broadview Ave,43.6783213,-79.35822,7
Broadview Ave / Westwood Ave,43.6848652,-79.356602,3
Fulton Ave / Pape Ave,43.68395,-79.347046,9
Cosburn Ave / Donlands Ave,43.690537,-79.341307,2
Beltline Trail / Chaplin Cres.,43.704461,-79.423122,1
Lake Shore Blvd E / Leslie St,43.659195,-79.329196,18
King St E / Berkeley St,43.651885,-79.3649,10
Rosedale Park (20 Scholfield Ave),43.682645,-79.377557,14
Mary McCormick Rec Centre (Sheridan Ave),43.6475,-79.43305555555555,5
Soho St / Queen St W,43.6494896,-79.393535,7
Davenport Rd / Lansdowne Ave,43.671526,-79.44874,0
Front St W / University Ave (2),43.6452972,-79.3827914,10
457 King St W,43.6452091,-79.3960744,15
Dufferin St / Sylvan Av (Dufferin Grove Park),43.6555556,-79.43361111111112,9
Roxborough St W / Yonge St,43.678077,-79.390328,1
Crawford St / Queen St W,43.645665,-79.415345,19
Lisgar St / Dundas St W - SMART,43.6493472,-79.42668,5
Dundas St E / Regent Park Blvd,43.660207,-79.361275,11
Lower Sherbourne St / The Esplanade,43.648655,-79.367061,24
Nelson St / Duncan St,43.648711,-79.389728,10
Jimmie Simpson Park (Queen St E),43.6605603,-79.3437663,10
Queen St E / Sackville St,43.6561111,-79.36138888888888,5
Mill St / Tannery Rd,43.652219,-79.354455,24
Cherry St / Distillery Ln,43.650279,-79.356832,12
Queen St W / Spadina Ave,43.649147,-79.395504,10
Yonge St / Harbour St,43.643795,-79.375413,4
Willcocks St / St. George St,43.662085,-79.397735,0
Dundas St E / Parliament St,43.659575,-79.365769,7
51 Parliament St,43.65205,-79.362198,15
Queen's Park / Bloor St W,43.668456,-79.393899,0
Fort York Blvd / Bathurst St - SMART,43.639052,-79.399792,8
Alma Ave / Gladstone Ave SMART,43.6448617,-79.42822,11
Queen St W / Cowan Ave,43.6409,-79.432837,15
Harbord St / Clinton St,43.660414,-79.415646,4
Central Tech  (Harbord St),43.661975,-79.407896,5
Roxton Rd / Harbord St,43.65905,-79.422988,0
Ulster St / Bathurst St,43.66,-79.4088888888889,8
Mortimer Ave / Coxwell Ave,43.690564,-79.326319,5
Danforth Ave / Barrington Ave,43.688325,-79.300463,0
Pacific Ave / Glenlake Ave,43.65716,-79.46478,21
Broadview Subway Station,43.6772,-79.35858,5
Church St  / Wood St,43.662712,-79.379903,3
College Park - Gerrard Entrance,43.658938,-79.383518,0
Danforth Ave / Coxwell Ave,43.683378,-79.322961,8
12 Harbour St,43.6425636,-79.3762,3
Howard Park Ave / Dundas St W - SMART,43.6521,-79.4486,9
Yonge St / Bloor St,43.669969,-79.386532,0
Dufferin Gate - SMART,43.633473,-79.425679,7
Lake Shore Blvd W / Ontario Dr,43.630254,-79.420317,23
Bloor St W / Shaw St - SMART,43.662403,-79.423098,13
Concord Ave / Dewson St,43.656945,-79.424911,3
Hocken Ave / Vaughan Rd,43.6817346,-79.4184725,0
St Clair Ave W / Bathurst St.,43.683296,-79.418734,0
Queen St E / Nursewood Rd,43.673831,-79.281455,15
Kewbeach Ave / Kenilworth Ave,43.666325,-79.3014,15
Lakeview Ave / Harrison St (Green P) – SMART,43.651145,-79.423742,15
Baldwin St / Spadina Ave - SMART,43.654905,-79.398448,17
Frederick St / King St E,43.651118,-79.369411,16
College St / Borden St,43.6571,-79.4056,10
Beverley  St / Dundas St W,43.652823,-79.393388,24
Bay St / St. Joseph St,43.665527,-79.387499,0
Gould St / Mutual St,43.6582,-79.3768,20
Riverdale Park North (Broadview Ave),43.671172,-79.354704,13
Danforth Ave / Ellerbeck St,43.677076,-79.35667,3
Pape Subway Station (Green P),43.680223,-79.344062,0
Danforth Ave / Gough Ave,43.678401,-79.346289,1
Danforth Ave / Lamb Ave,43.681991,-79.329455,1
King St W / Stafford St,43.6422222,-79.41111111111111,15
Bathurst St / Lennox St,43.663808,-79.410491,17
Bathurst Subway Station,43.6666667,-79.41166666666668,5
Bloor St W / Christie St,43.6638889,-79.41888888888889,9
Ossington Ave / Bloor St W,43.661705,-79.425734,2
Essex St / Christie St - SMART,43.6686111,-79.42027777777778,0
Westmoreland Ave / Fernbank Ave,43.665327,-79.43235,5
Havelock St / Dufferin Park,43.657343,-79.43112,5
Bathurst St / Adelaide St W,43.645324,-79.40345,16
Mill St / Parliament St,43.650256,-79.36163,12
Ossington Ave / Harrison St,43.651111111111106,-79.4213888888889,16
80 Clinton St,43.656296,-79.414663,14
Claremont St / Dundas St W,43.651281,-79.411717,7
Rusholme Park Cres / College St,43.65277778,-79.42972222,15
College St / Crawford St,43.655,-79.418889,16
Gerrard Square Mall (1010 Gerrard St E),43.668553,-79.338673,15
Queen St E / Alton Av,43.663912,-79.327987,17
Simcoe St / Wellington St W North,43.6462176,-79.3855048,8
Coxwell Ave / Plains Rd,43.69595,-79.328535,7
Carlaw Ave / Strathcona Ave,43.6753188,-79.3462789,5
Logan Ave / Bain Ave,43.6720273,-79.3470557,11
Liberty St / Fraser Ave Green P,43.637981,-79.424146,15
King St W / Douro St,43.640885,-79.416379,9
Queen St E / Berkeley St,43.6552778,-79.36583333333333,12
Howard St / Sherbourne St,43.6712581,-79.376367,1
Carlton St / Parliament St,43.664524,-79.36793,12
Sumach St / Carlton St (Riverdale Farm),43.665867,-79.362506,7
King St W / Bay St (East Side),43.648575,-79.380042,1
Front St W / Blue Jays Way,43.643473,-79.390477,1
Metro Hall Plaza,43.645859,-79.38783,4
Parliament St / Gerrard St E,43.662132,-79.3656796,1
Navy Wharf Crt / Bremner Blvd,43.640722,-79.391051,9
Jarvis St / Carlton St,43.66207,-79.37617,0
Lake Shore Blvd E / Knox Ave,43.660206,-79.3244,10
Hubbard Blvd. / Glen Manor Dr.,43.668633,-79.291162,14
Yonge St / Dundonald St - SMART,43.665801,-79.384796,2
Bay St / Charles St W - SMART,43.668153,-79.38891,0
Church St / Dundas St E - SMART,43.657024,-79.377257,0
Yonge St / Alexander St - SMART,43.662862,-79.383572,3
Eglinton Ave W / Henning Ave SMART,43.7063473,-79.40161,0
Balliol St / Yonge St  SMART,43.6978701,-79.39419,0
Frobisher Ave / Lascelles Blvd,43.696708,-79.40045,2
Front St E / Scott St,43.6476616,-79.37549,11
Frederick St / The Esplanade,43.6487245,-79.36839,19
King St W / Bay St (West Side),43.64852,-79.380576,18
Elizabeth St / Edward St (Bus Terminal),43.656026,-79.385327,7
King St W / Spadina Ave,43.645323,-79.395003,10
Glen Edyth Dr / Davenport Rd,43.677778,-79.405556,1
Queens Quay / Yonge St,43.641646,-79.375308,22
Front St W / Bay St (North Side),43.646162,-79.378912,9
Danforth Ave / Westlake Ave,43.687323,-79.304848,0
Jarvis St / Isabella St,43.668991,-79.379385,0
Yonge St / Wood St,43.6622222,-79.3825,1
King St W / Tecumseth St,43.64333333333333,-79.40555555555557,11
Beverley St / College St,43.6575,-79.39527777777778,17
Gould St / Yonge St (TMU),43.657424,-79.381019,15
Front St W / Bay St (South Side),43.64595,-79.378761,4
Charles St W / Balmuto St - SMART,43.668427,-79.38725,1
Charles St E / Jarvis St - SMART,43.669604,-79.381171,0
Queen St E / Pape Ave - SMART,43.661673,-79.337789,14
Gerrard St E / Broadview Ave  - SMART,43.665656,-79.352055,16
Humber Bay Shores Park East,43.6308933,-79.4722622,18
Humber Bay Shores Park West,43.6224434,-79.480284,30
Taddle Creek Park,43.66986,-79.398443,3
Thompson St / Broadview Ave - SMART,43.659471,-79.350325,7
Roncesvalles Ave / Marmaduke St,43.650492,-79.450842,2
Queen St W  /  Fuller Ave - SMART,43.640255,-79.439223,3
King St W / Cowan Ave - SMART,43.637922,-79.431734,13
Garden Ave / Roncesvalles Ave,43.643769,-79.447915,18
Sorauren Ave / Geoffrey St - SMART,43.649172,-79.4445087,2
Bloor St W / Manning Ave - SMART,43.663912,-79.416124,10
Mallon Ave / Jones Ave -SMART,43.66587,-79.33443,15
Berkeley St / Dundas St E - SMART,43.658816,-79.367318,14
128 Sterling Rd - SMART,43.654004,-79.444792,9
Sunnyside Ave / The Queensway - SMART,43.6397,-79.44865,14
Sackville St / Eastern Ave - SMART,43.653809,-79.3595,8
Davenport Rd / McAlpine St - SMART,43.673768,-79.391253,0
Sumach St  / Queen St E,43.656638,-79.358749,7
Blythwood Rd / Yonge St - SMART,43.716652,-79.399993,3
Gerrard St E / Main St,43.684261,-79.299332,0
Southwood Dr / Kingston Rd - SMART,43.678685,-79.297974,0
Neil McLellan Park,43.65143,-79.47779,7
Jane St / Bloor St W (Jane Subway Station),43.64976,-79.48477,6
Antler St / Campbell Ave - SMART,43.664182,-79.449066,1
Clarence Square,43.64407,-79.3929,3
Lake Shore Blvd W / Louisa St,43.61868,-79.48674,14
Front St W / Simcoe St,43.6442,-79.38702,14
Lower Simcoe St / Bremner Blvd,43.64283,-79.38409,6
Glendonwynne Rd / Bloor St W,43.65182,-79.47421,7
Russell Hill Rd / St Clair Ave W,43.685569,-79.408019,0
Church St / Lombard St,43.651678,-79.375233,14
Richmond St E / Yonge St,43.651838,-79.378743,7
Queen's Park Cres W / Hoskin Ave,43.665221,-79.394009,2
Pottery Rd / Lower Don River Trail,43.688148,-79.362101,15
Bleecker St / St James Ave,43.669232,-79.374495,2
Western Battery Rd / Pirandello St,43.640075,-79.414156,17
Carlaw Ave / Danforth Ave,43.678285,-79.347346,2
Cosburn Ave / Cedarvale Ave,43.697139,-79.31469,1
Goodwood Park Crt / Dentonia Park,43.694826,-79.295208,5
Eastwood Rd / Coxwell Ave,43.673118,-79.318651,13
Trent Ave / Danforth Ave,43.689293,-79.295895,2
Orchard Park,43.66908,-79.3149,17
Clendenan Ave / Rowland St - SMART,43.66073,-79.47149,12
Martin Goodman Trail / Remembrance Dr,43.63121,-79.41414,24
Concord Ave / Bloor St W,43.66189,-79.42679,2
Gothic Ave / Quebec Ave,43.65389,-79.4675,11
Via Italia / Mackay Ave,43.676697,-79.445029,1
Rushton Rd / St Clair Ave W,43.68114,-79.4277,0
Dundas St E / Boulton Ave - SMART,43.663148,-79.347938,13
Gerrard St E / Leslie St,43.669813,-79.3335,22
Marilyn Bell Park Tennis Court,43.633537,-79.437461,9
The Queensway at South Kingsway,43.63632,-79.47307,22
Merton St / Mount Pleasant Rd,43.697819,-79.38786,0
Tyndall Ave / King St W - SMART,43.638426,-79.429142,15
College Park - Yonge St Entrance,43.65988,-79.38279,4
Barton Ave / Howland Ave - SMART,43.66842,-79.410585,3
Keele St / Annette St,43.66402,-79.46418,3
Keele St / Vine Ave,43.66686,-79.46526,3
Howard St / Rose Ave,43.671278,-79.372127,0
Little Norway Park,43.635023,-79.399505,22
Isabella St / Church St,43.66834,-79.38235,2
University Ave / Armoury St,43.65263,-79.38766,0
Lascelles Blvd / Eglinton Ave W,43.70547,-79.40355,1
Polson Pier,43.641675,-79.354006,8
Dentonia Park,43.694341,-79.291416,1
Lower Jarvis St / Queens Quay E,43.64422,-79.36927,17
Summerhill Ave / Maclennan Ave,43.685924,-79.376304,0
Queens Quay E / Lower Sherbourne St,43.645215,-79.364898,3
Wright Ave / Sorauren Ave - SMART,43.646677,-79.442741,1
Ellis Ave / The Queensway,43.63855,-79.46693,15
High Park - Grenadier Cafe,43.645599,-79.4657123,9
Winona Dr / Davenport Rd,43.674923,-79.430465,1
Danforth Ave / Aldridge Ave,43.684758,-79.316767,3
Dundonald St / Church St,43.66663,-79.38148,0
Gerrard St E / Malvern Ave - SMART,43.685221,-79.294766,0
Bathurst St/Queens Quay(Billy Bishop Airport),43.635492,-79.398253,11
Queens Quay W / Lower Simcoe St,43.63951,-79.383717,17
Bremner Blvd / Rees St,43.641529,-79.386741,15
King St W / Crawford St,43.6417852,-79.4131148,22
Yonge St / Dundas Sq,43.655766,-79.3802,12
St Clair Ave W / Winona Dr,43.680466,-79.432522,1
Bay St / Wellesley St W,43.664088,-79.387095,7
Humberside Grounds - SMART,43.65917,-79.46997,9
Bloor St E / Huntley St - SMART,43.671535,-79.379173,1
Wellington St W / York St,43.646734,-79.38301,0
Dalton Rd / Bloor St W,43.6662942,-79.4066433,9
Davenport Rd / Christie St,43.675278,-79.423889,1
King St W / Jordan St,43.648928,-79.378623,6
E.T. Seton Park (Eglinton Ave E / Leslie St),43.715951,-79.351246,1
Woodbine Ave / Lake Shore Blvd E,43.665645,-79.304711,19
King St W / Charlotte St,43.645572,-79.39399,7
Jarvis St / Richmond St E,43.652777,-79.372637,8
Symington Ave / Dupont St,43.665538,-79.451263,2
King St E / Jarvis St,43.650325,-79.372287,21
Bay St / Bloor St W (East Side),43.66943,-79.38915,0
Bay St / Bloor St W (West Side),43.669244,-79.3894,1
Wells Hill Ave / St Clair Ave W,43.683351,-79.41562,0
Dundas St E / George St,43.6574766,-79.373446,1
Fleet St / Bathurst St,43.636611,-79.400042,11
Tecumseth St / Queen St W - SMART,43.646552,-79.406468,7
Briar Hill Ave / Yonge St - SMART,43.713524,-79.400162,0
King St E / Church St,43.65003919999999,-79.3733541,13
Bay St / Albert St,43.653264,-79.382458,15
Wellesley St W / Queen's Park Cres,43.663376,-79.392125,0
Bay St / College St (East Side),43.660439,-79.385525,5
University Ave / College St (West),43.659226,-79.390213,0
University Ave / College St (East),43.65995,-79.38964,0
Queen's Park Cres E / Grosvenor St - SMART,43.661803,-79.389682,2
Bay St / College St (West Side) - SMART,43.660087,-79.385655,1
Superior Ave / Lake Shore Blvd W,43.6146692,-79.4873148,11
Humber Bay Shores Park / Marine Parade Dr,43.626265,-79.476723,23
Lake Shore Blvd W / Colborne Lodge Dr,43.63771,-79.458173,4
Ripley Ave / Ormskirk Ave,43.6390437,-79.4760109,18
St Clarens Ave / Shirley St,43.6486599,-79.4376413,3
Lisgar Park,43.6423847,-79.4240277,13
Bartlett Parkette,43.6702236,-79.4360232,0
Sherbourne St N / Elm Ave,43.6752732,-79.3778458,1
Walnut Ave / Queen St W,43.645469,-79.411084,10
Vaughan Rd /Wychwood Ave,43.6882821,-79.4253856,0
Palmerston Ave / Dundas St W,43.651603,-79.408346,12
541 Huron St - SMART,43.670206,-79.402643,8
Euclid Ave / Herrick St - SMART,43.661559,-79.413845,5
Baldwin St / Henry St,43.6560758,-79.393259,14
Orde St / McCaul St,43.6580442,-79.3927404,1
Ross St / Cecil St - SMART,43.6568254,-79.3966159,9
Lake Shore Blvd W / Thirty Ninth Street,43.5927419,-79.54033009999999,19
Lake Shore Blvd W / Twenty Fourth St,43.597082,-79.522768,6
Windsor St / Newcastle St,43.6171635,-79.4971065,17
Royal York Rd / Mimico Ave,43.612063,-79.496573,16
Berry Rd / Bell Manor Dr,43.63732,-79.489083,8
Humber College,43.5961692,-79.5160575,3
Amos Waites Park,43.613606,-79.4883535,23
Priscilla  Ave / Dundas St W,43.664665,-79.489385,20
Durie St / Dundas St W,43.665523,-79.484892,6
St Clair Ave W / Castleton Ave,43.668496,-79.485426,4
Weston Lions Park,43.698841,-79.519472,11
Annette St / Jane St,43.658574,-79.487246,10
Jameson Ave / Queen St W,43.63985,-79.43703,19
Carlaw Ave / Dundas St E,43.665076,-79.341509,8
Toronto Inukshuk Park,43.6323994,-79.40978179999999,36
Cosburn Ave / Durant Ave,43.6935477,-79.3301658,6
Swansea Community Centre,43.6438036,-79.4770327,7
Bellwoods Ave / Treford Pl - SMART,43.65246,-79.413528,14
Bayview Ave / Lawren Harris Square,43.6548521,-79.35397680000001,4
The Queensway / High St,43.630874,-79.482407,19
Symington Ave / Davenport Rd,43.6704403,-79.45328549999999,0
Front St E / Bayview Avenue,43.6535,-79.354068,17
Oak St / Sumach St,43.6617908,-79.361515,11
The Esplanade / Hahn Pl,43.649709,-79.364184,15
439 Sherbourne St,43.666051,-79.374161,4
Glebe Rd W / Yonge St,43.7005976,-79.397345,1
Hillsdale Ave W / Yonge St,43.7029672,-79.3979073,0
Alvin Ave / St Clair Ave E,43.68871,-79.39264,0
Eglinton Ave W / Scarlett Rd,43.6834703,-79.5108942,4
The Pond Rd / Sentinel Rd,43.7696262,-79.5025943,9
Sentinel Rd / Finch Corridor Trail,43.7641485,-79.5012809,2
Finch West Subway Station,43.76521,-79.491281,7
Dufferin St / Finch Corridor Trail,43.7724019,-79.4675395,10
G Ross Lord Park,43.7781116,-79.467963,6
Elwood Blvd / Avenue Rd,43.707049,-79.40966,0
Roehampton Ave / Bayview Ave,43.711751,-79.378615,9
Teddington Park Ave,43.732975,-79.40401,0
Ursula Franklin St / Huron St - SMART,43.660274,-79.398049,0
Woodbine Ave / O'Connor Dr,43.699281,-79.318802,1
Dawes Rd / Taylor Creek Trl,43.696631,-79.297436,6
Queen St W / John St,43.650077,-79.391291,10
Fairmount Park,43.6765897,-79.3163022,17
Richmond St W / York St,43.650745,-79.383633,0
Sunnybrook Park,43.720233,-79.362092,16
Vaughan Rd / Oakwood Ave,43.6926825,-79.441042,1
Braemar Ave / Eglinton Ave W,43.7041957,-79.4094472,1
Eglinton Ave E / Redpath Ave,43.7078691,-79.39248,0
Marie Curtis Park,43.5880774,-79.5432067,18
Guildwood GO Station (South),43.754978,-79.1971289,2
Chorley Park - SMART,43.6856,-79.3718,1
Cherry Beach,43.637764,-79.345359,10
Spadina Ave / Harbord St - SMART,43.6629228,-79.4018451,1
Ursula Franklin St / St. George St - SMART,43.660296,-79.397107,1
Rouge Hill GO Station,43.7805505,-79.1301203,4
Colonel Danforth Park,43.7777114,-79.1659711,7
Morningside Park (Highland Creek Trail),43.779353,-79.193023,8
Livingston Rd / Guildwood Pkwy,43.747854,-79.199327,12
Livingston Rd (Highland Creek Trail),43.7561681,-79.2026694,6
Twelfth St / Thirteenth St,43.6002896,-79.5108692,18
Florence Gell Park,43.6615467,-79.498398,14
Wallace Ave / Pauline Ave,43.6632257,-79.4397052,3
Kingston Rd / Beech Ave,43.680095,-79.291714,3
Victoria Park Ave / Danforth Ave,43.691468,-79.288619,7
Union Station,43.645609,-79.380386,36
Hayter St / La Plante Ave,43.6591666666667,-79.3855555555556,1
Seaton St / Dundas St E - SMART,43.658777,-79.369596,11
Lundy Ave / Étienne Brûlé Park,43.6625395,-79.5030161,13
Chiltern Hill Rd / Eglinton Ave W,43.7004017,-79.4275305,0
Torresdale Ave / Antibes Dr,43.77953,-79.45233,8
Esther Shiner Stadium,43.7774374,-79.4447096,3
St. George St / Hoskin Ave,43.6637403,-79.39806449999999,1
Fleming Cres / Bayview Ave,43.707045,-79.375437,3
King St E / Victoria St,43.6495789,-79.3762096,7
Alameda Ave / Vaughan Rd - SMART,43.690903,-79.4375028,0
Adelaide St W / Strachan Ave,43.643253094827294,-79.41230469904167,12
Royal York Rd / Lake Shore Blvd W,43.6029904,-79.4926867,14
Runnymede Rd / Annette St,43.6596299,-79.4799176,5
Salem Ave / Bloor St W,43.6608333,-79.43166666666667,6
Dufferin St / Bloor St W,43.66083333333333,-79.43583333333333,1
Davisville Ave / Pailton Cres,43.69933,-79.39199,0
High Park Ave / Dundas St W,43.6653032,-79.4701178,11
Judson St / Royal York Rd,43.6162721,-79.4990363,2
Wilket Creek Park,43.720645,-79.355474,1
Annette St / Dundas St W,43.6641174,-79.4588522,8
Noble St / Queen St W,43.6424558,-79.4296346,3
Oriole Pkwy / Kilbarry Rd,43.6954486,-79.4026176,1
East Lynn Ave / Danforth Ave,43.6850809,-79.3149901,7
Langford Ave / Danforth Ave - SMART,43.6800218,-79.3405681,5
University of Toronto Scarborough,43.7842419,-79.1849889,4
190 Queens Quay E,43.6451308,-79.36536439999999,5
324 Cherry St,43.6482995,-79.3552533,6
Elm St/ University Ave (East Side),43.65637299999999,-79.38781039999999,8
Walton St / Elizabeth St - SMART,43.657838,-79.38631,0
Waterfront Trail (Rouge Hill),43.778015,-79.131911,7
St Clair Ave W / Gunns Rd,43.672079,-79.470171,9
Pape Ave / Gamble Ave,43.690237,-79.350119,10
Roehampton Ave / Mount Pleasant Rd,43.70942,-79.39139,0
Church St / Bloor St E,43.671389,-79.382919,2
200 Bloor St E,43.671561,-79.38117,0
Moore Park,43.693256,-79.383238,0
Bloor St W / Pacific Ave,43.65412449999999,-79.4636388,5
Danforth Ave / Dewhurst Blvd,43.680207,-79.339243,0
Bloor St W / Brock Ave,43.6589882,-79.438715,3
Davenport Rd / Dovercourt Rd - SMART,43.6741219,-79.4352208,1
1 Market St - SMART,43.6469928,-79.3706665,10
Brick Works,43.683884,-79.36647,12
University Ave / Gerrard St W (WEST) - SMART,43.6578449,-79.3899265,2
University Ave / King St W - SMART,43.6477785,-79.3847928,4
Amroth Ave / Danforth Ave,43.6856128,-79.31168269999999,0
Summerhill Subway Station,43.681944,-79.390556,0
Niagara St / Richmond St W,43.64534,-79.409597,21
Beaty Ave / Queen St W,43.6393107,-79.4408141,12
Blantyre Park,43.68306889999999,-79.279682,3
Queen St E / Rushbrooke Ave,43.6626628,-79.3323698,14
Donlands Subway Station,43.681114,-79.3373885,11
Lynn Williams St / East Liberty St - SMART,43.638925,-79.4168659,14
Eastwood Rd / Woodbine Ave - SMART,43.676216,-79.309395,10
Victoria St / Queen St E,43.652822,-79.378208,3
285 Victoria St,43.656633,-79.379625,30
Gerrard St E / Victoria Park Ave - SMART,43.686962,-79.286864,3
Kilgour Rd / Rumsey Rd,43.718039,-79.371914,1
Bay St / Scollard St,43.672152,-79.39018,1
Weston Rd / St Clair Ave W - SMART,43.673019,-79.467994,3
Sunnybrook Health Centre - L Wing,43.72268,-79.37644,0
Dundas St W / St Helen's Ave - SMART,43.6504218,-79.4407647,3
Yonge St / St Clair Ave,43.68850459999999,-79.3940052,0
Spadina Ave / Blue Jays Way,43.641705,-79.393295,15
Bloor St W / Riverside Dr,43.647663,-79.487583,2
Sunnybrook Health Centre - S Wing,43.720998,-79.377456,1
Yonge St / Woburn Ave - SMART,43.72814640000001,-79.4032194,1
Simcoe St / Michael Sweet Ave,43.652327224103,-79.3882538196087,2
Queen St W / Dovercourt Rd,43.6438602,-79.4227573,7
King's Mill Park,43.64920406876699,-79.49336334201408,1
University Ave / Richmond St W,43.6503935,-79.3860211,0
135 Queens Wharf Rd - SMART,43.6399714,-79.39940399999999,8
406 Oakwood Ave,43.68827060022711,-79.43937767081853,0
Granby St / Church St - SMART,43.6614605,-79.37894570000002,5
Lumsden Ave / Eastdale Ave,43.69413548199171,-79.30058718775287,7
Yonge St / Lawrence Ave E,43.7254665,-79.40115449999999,0
Yonge St / Orchard View Blvd,43.7083577,-79.39886200000001,3
Hanna Ave / Liberty St,43.63840090000001,-79.4197107,10
Lower Don River Trail and Taylor Creek Trail,43.7027268,-79.33368089999999,17
St Columba Pl / St Clair Ave E,43.70567,-79.310554,14
Strachan Ave / Princes' Blvd,43.635,-79.4088888888889,2
King St E / River St,43.656784782853144,-79.35627385059036,6
Yonge St / Golfdale Rd,43.732016,-79.403637,0
909 Yonge St,43.67515255542865,-79.38849615969643,6
640 Bloor Street E,43.67468857448634,-79.36701962396272,0
York University (Glendon Campus) - SMART,43.727365488246306,-79.3814254607724,0
1303 Yonge St - SMART,43.6846177,-79.39245919999999,0
York University Station (South) - SMART,43.77345,-79.5002,1
Woodbine Subway Station,43.686442,-79.313404,0
Spadina Ave / Sussex Ave - SMART,43.66402799999999,-79.40297869999999,12
Simcoe St / Queen St W,43.65049,-79.3873,23
Bathurst St / Front St W,43.64134790000001,-79.4013882,22
Bay St / Harbour St (East),43.64215,-79.377,1
East Liberty St / Western Battery Rd,43.6392777,-79.4115736,11
King St W / Brant St,43.645102,-79.39744979999999,20
Bloor St W / Gladstone Ave - SMART,43.6602021,-79.4342726,6
High Park Blvd / Parkside Dr,43.644887,-79.45641169999999,4
20 Eaton Ave,43.680012,-79.34403250000001,10
Fort York Blvd / Garrison Rd,43.637381,-79.406112,4
Housey St / Dan Leckie Way,43.63811,-79.397877,24
1525 Dundas St W,43.64957,-79.432446,3
85 Lee Ave,43.6700692,-79.2971326,17
Mutual St / Shuter St (Arena Gardens),43.6559476,-79.37558829999999,2
Queen St E / Joseph Duggan Rd,43.6677628,-79.30811709999999,13
Heyworth Cres / Kingston Rd,43.6750806,-79.3068697,4
St Clair Ave W / Caledonia Rd,43.6754247,-79.4547813,0
Wellington St W / Stafford St,43.6409957,-79.40966630000001,13
111 Broadview Ave,43.6593483,-79.34993659999999,7
Christie St / Dupont St,43.67168,-79.421192,1
Richmond St E / Jarvis St Green P,43.652634,-79.374222,13
Bathurst St / Dundas St W,43.6519501,-79.4060978,6
Oak St / Sackville St,43.6613642,-79.3641171,3
24 Mountjoy Ave,43.6808774,-79.3304491,2
Colgate Ave / Carlaw Ave,43.6623658,-79.3413344,13
Felstead Ave/Gillard Ave (Monarch Park),43.6791345,-79.3263159,13
Lower Jarvis St / The Esplanade,43.6478206,-79.3704721,15
Coronation Park (Martin Goodman Trail),43.635495,-79.40352209999999,17
101 Cedarvale Ave,43.6868681,-79.3110942,4
St Clair Ave W / Oakwood Ave,43.678177,-79.435364,1
Beltline Trail / Yonge St,43.6962302,-79.39504339999999,2
Shaw St / Essex St - SMART,43.667076,-79.425116,0
St Clair Ave W / Robina Ave,43.68005,-79.43469,0
Joseph J Piccininni Community Centre,43.675648,-79.4527619,1
11 Spadina Rd,43.6677246,-79.4041365,1
Vanauley St / Queen St W - SMART,43.648437,-79.39838,3
Sherbourne St / Wellesley St E,43.6673,-79.374,2
Queen St W / Bay St (City Hall),43.6517925,-79.38269509999999,4
Queen St W / Roncesvalles Ave,43.6372958,-79.4423237,16
Havelock St / Dewson St,43.6554793,-79.4302462,6
St Clair West Subway Station - Heath Entrance,43.686352,-79.415894,0
Queen St W / Shaw St,43.6442457,-79.41610440000001,22
York University Station (North),43.7741,-79.5005,3
Spadina Rd / St.Clair Ave West,43.683979,-79.410657,0
Spadina Ave / Adelaide St W,43.6472019,-79.3953394,3
Cherry St / Mill St,43.6513927,-79.35794659999999,11
Jarvis St / Maitland Pl,43.6647688,-79.3772602,0
Temperance St / Bay St,43.6506,-79.381285,11
Cherry Beach Sports Fields (55 Unwin Ave),43.6408346,-79.3429074,15
Randolph Ave / Perth Ave,43.6585504,-79.4497659,8
Wolseley St / Augusta Ave,43.6484201,-79.40051919999999,25
Lumsden Ave / Cedarvale Ave,43.693187,-79.314283,8
Niagara St / Portland St,43.6425791,-79.40011729999999,7
Church St / The Esplanade,43.6469251,-79.3733192,15
King St W / Portland St,43.644395,-79.40065430000001,5
Widmer St / King St W,43.6463574,-79.391206,5
Wellesley St E / Parliament St,43.6682342,-79.3702641,0
Yonge St / Macpherson Ave,43.6791876,-79.39071899999999,1
Davenport Rd / Bedford Rd,43.674446,-79.398331,4
265 Armadale Ave,43.6501644,-79.48296909999999,3
St. Joseph St / Bay St - SMART,43.6658804,-79.38761010000002,0
Victoria Park Ave / Kingston Rd,43.68035,-79.28357,1
Ontario St / Adelaide St E -SMART,43.6535052,-79.3667689,7
Highview Ave / Kennedy Rd,43.702418581463505,-79.2563167072858,2
Kingston Rd / Warden Ave,43.68824135931814,-79.27046628033244,4
Birchcliff Ave / Kingston Rd,43.691688,-79.265027,5
Kingston Rd / Glen Everest Rd,43.697490048103,-79.25655146462776,9
Birchmount Rd / Kingston Rd,43.69401297794256,-79.26257204548136,1
Pharmacy Ave / Danforth Ave,43.6929478,-79.28339980000001,14
Danforth Ave / Warden Ave,43.6950192,-79.27180659999999,10
Eglinton Ave W / Gilbert Ave,43.69263249999999,-79.4627536,0
Sharpe St / Park St (Sandown Park),43.7105975,-79.2541175,15
Eglinton Ave W / Prospect Cemetery,43.69415,-79.45782580000001,1
Marlee Ave / York Beltline Trail,43.70163,-79.44099,2
Bert Robinson Park,43.688028,-79.460265,6
Rogers Rd / Prospect Cemetery,43.68323,-79.455765,3
Eglinton Ave W / Ennerdale Rd,43.69466,-79.45376999999999,0
Chester Subway Station,43.6784834,-79.3513564,1
Bloor St W / Old Mill Trl,43.65016869999999,-79.4963345,4
Wendover Rd / Bloor St W (Green P),43.6492,-79.50601999999999,1
Luttrell Ave / Danforth Ave,43.6897656,-79.2939525,1
1926 Lake Shore Blvd W,43.6357643,-79.4674917,12
36 Park Lawn Rd,43.62369169999999,-79.4838132,15
Howard Park Ave / Parkside Dr,43.648657,-79.458111,3
Ted Rogers Way / Bloor St E,43.671293,-79.380471,0
Walter Saunders Park,43.699327072589426,-79.4493630391668,0
Park Lawn Rd / Berry Rd,43.63560589999999,-79.4934616,7
Tobermory Dr / Finch Corridor Trail,43.7611741,-79.5114452,3
Driftwood Ave / Finch Corridor Trail,43.7603624,-79.5162777,6
Grand Avenue Park,43.62313,-79.4918,10
The Pond Rd / Shoreham Dr,43.772445,-79.511912,2
Berkeley St / Adelaide St E - SMART,43.653359,-79.365023,11
Kingston Rd / Ridgemoor Ave,43.70643614257429,-79.25104443353288,4
Moss Park,43.655972,-79.370638,0
York St / Lake Shore Blvd W,43.641952,-79.380723,14
St. Andrew's Playground Park,43.646552,-79.399586,11
College St / Henry St ,43.6591529,-79.3947953,0
Emerson Ave / Bloor St W,43.659055,-79.440764,3
Sherbourne St / Isabella St,43.669576,-79.375961,2
Victoria Park Ave / Dawes Rd,43.706466,-79.29511,7
Roncesvalles Ave / Fermanagh Ave,43.646314469245205,-79.44879407014527,13
Tommy Thompson Park (Leslie Street Spit),43.65222662225532,-79.32295440954084,10
St. John's Rd / Dundas St W,43.66526761605873,-79.47502122887077,9
Albany Ave / Bloor St W,43.66554144421798,-79.41010317605742,7
Pioneer Village Subway Station,43.77649016265579,-79.5085364909097,2
Toronto Eaton Centre (Yonge St) - SMART,43.655431,-79.380653,9
Armoury St / Chestnut St,43.65351799690878,-79.38591063795928,5
Lake Shore Blvd W / Brow Dr,43.59119994025076,-79.54449133041076,7
25 Booth Ave,43.6544839,-79.34105699999999,13
Spadina Ave / Sullivan St,43.65082785552666,-79.39698099821702,21
St. Clair Ave W / Osler St,43.673843560032594,-79.46092618902435,4
Simcoe St / King St W,43.647508351306186,-79.38604436555764,0
Grenoble Dr / Gateway Blvd,43.71513211098082,-79.33413623320465,6
Grenoble Dr / Deauville Ln,43.71649675774656,-79.33089439933623,0
Grenoble Dr / Vendome Pl,43.715537998967406,-79.32811427663442,2
Thorncliffe Park Dr / Leaside Park Trail,43.70400405297843,-79.34807015078738,3
Ferrand Dr / Rochefort Dr,43.719632535237835,-79.33199950866776,5
165 McRae Dr,43.70656159598004,-79.36781965092621,8
75 Thorncliffe Park Dr,43.70518328279426,-79.34224729962946,4
Mount Pleasant Rd / Davisville Ave - SMART,43.70088225686968,-79.38736016665911,1
St Clair Ave W / Avenue Rd ,43.68688938028234,-79.40099513147447,0
HTO Park (Queens Quay W),43.63796,-79.387502,18
Nassau St / Bellevue Ave,43.65484215542248,-79.40351232494366,11
Huron St / Harbord St,43.6637,-79.400053,2
Ward St / Wallace Ave,43.662857,-79.44618,0
Starspray Blvd / Lawrence Ave E,43.788319,-79.123505,9
The Well,43.643025055165865,-79.39430137761319,17
60 Carl Hall Rd - SMART,43.7482972,-79.47570569999999,0
HTO Park West,43.63737145931921,-79.38976958703309,28
Downsview Park Blvd / Keele St  - SMART,43.73673829262113,-79.48227195568086,7
Downsview Park Subway Station - SMART,43.753107,-79.479626,5
Keele St / Dovehouse Ave - SMART,43.7494501,-79.4869662,1
Exhibition GO (Atlantic Ave),43.637695491830144,-79.42023184193503,12
Queens Quay E / Lower Jarvis St ,43.64392767366328,-79.3687301736982,16
Phoebe St / Spadina Ave,43.650033,-79.396555,10
Lynn Williams St / Pirandello St ,43.639124514797004,-79.41423166721611,12
Bay St / Queens Quay W (Ferry Terminal),43.640978,-79.376785,1
College St / Huron St,43.658148,-79.398167,5
Northern Dancer Blvd / Lake Shore Blvd E,43.663162,-79.309765,12
Spadina Rd / Austin Terrace,43.67883,-79.408723,0
York St / Queens Quay W,43.640132,-79.380464,52
Front St W / University Ave (1),43.6451635,-79.3831757,14
Willingdon Blvd / Bloor St W (Green P),43.64817,-79.510392,2
Wallace Ave / Symington Ave - SMART,43.661324,-79.449534,0
Wellesley Station Green P,43.66496415990742,-79.38355031526893,2
York St / Harbour St (Love Park),43.640741,-79.3798521,2
Sherbourne St / Carlton St (Allan Gardens),43.663102,-79.373181,0
Ontario Place Blvd / Lake Shore Blvd W,43.6322445,-79.4108105,25
Simcoe St / Dundas St W - SMART,43.655103,-79.389295,1
College St / Markham St,43.6563888888889,-79.4091666666667,5
Sunnyside - Gus Ryder Pool,43.637894,-79.454823,21
High Park - West Rd,43.6525077,-79.4654233,1
Bloor St W / High Park Ave (High Park),43.6535269,-79.4650569,9
Front St E / Cherry St,43.652686,-79.358395,12
519 Church St  - SMART,43.666850777484896,-79.38114574756837,0
Dundas St E / River St,43.661152,-79.358505,6
Shuter St/River St,43.659296,-79.358035,6
Madison Ave / Bloor St W,43.667158,-79.402761,2
Danforth Ave / Danforth Rd,43.69362206784152,-79.27710529695892,13
Brimley Rd / McCowan District Park,43.72704086366749,-79.24391402446746,2
King St W / Jameson Ave - SMART,43.63735795888104,-79.43617975886079,3
Parkcrest Dr / Kingston Rd,43.73596719224253,-79.21995221481933,5
Scarborough Soccer Centre,43.7154661,-79.2876595,4
Lansdowne Ave / Seaforth Ave ,43.642904395956684,-79.43746059447746,2
Danforth Rd / Birchmount Rd ,43.70688,-79.26850999999999,0
Pharmacy Ave / Teesdale Pl,43.697356080874876,-79.28528711019696,13
Yonge St / Montgomery Ave - SMART,43.70960859570095,-79.39915125005619,1
552 Birchmount Rd,43.71176278859601,-79.27028152889692,3
Highfield Rd / Gerrard St E,43.671771,-79.324961,17
Eastgate Ct / Pharmacy Ave ,43.7110442448186,-79.29127313845584,3
Firvalley Ct / Warden Ave,43.7032112,-79.2787149,2
Midland Ave / Kingston Rd,43.7128578,-79.2487086,2
Bellamy Rd S / Kingston Rd,43.7323277855009,-79.22496619876934,13
Avenue Rd / Cumberland St ,43.669821695059376,-79.39444614603269,4
High Park Amphitheatre,43.645653,-79.464366,12
High Park Outdoor Pool,43.649217,-79.465319,4
Fenwood Ht / Kingston Rd,43.72690169821676,-79.22920396582664,14
Avenue Rd / Macpherson Ave ,43.67794376009951,-79.39836278587889,4
Dufferin St / Queen St W,43.64309687937765,-79.42875613770637,2
Bay St / Dundas St W,43.655350778457056,-79.38345966759798,22
Shaw St / King St W,43.6412561641921,-79.41502994047545,14
Portland St / Queen St W,43.6476,-79.4015,13
Yonge St / Merton St ,43.6962750705313,-79.39629396191867,0
Soudan Ave / Yonge St ,43.70430959999999,-79.3972815,1
Avenue Rd / Oxton Ave ,43.69711160305226,-79.40537298227844,0
1612 Danforth Ave ,43.68370788065334,-79.32262453633884,6
75 Holly St - Green P,43.7063279,-79.3962499,0
Adelaide St W / Brant St - SMART,43.64600446255825,-79.39877642209015,15
Lisgar St / Queen St W - SMART,43.64299174164139,-79.42355911563249,14
Leslie St / Commissioners St  ,43.657275497390124,-79.32661544194183,16
Greenwood Ave / Sammon Ave,43.68698672516659,-79.33478198280334,4
Lansdowne Subway Station,43.65922918158098,-79.44320901022282,4
Warden Subway Station,43.71161098023304,-79.28055565662231,1
Kingston Rd / Scarborough Golf Club Rd,43.74531103700256,-79.20970650787817,7
Wellington St W / Bay St,43.647259,-79.379878,1
Greenwood Ave / Gerrard St E,43.67036917803197,-79.32782698645094,14
Simcoe St / Wellington St W South,43.6458569,-79.3853654,4
George St / King St E,43.6509552,-79.3707,10
Dundas St W / Crawford St,43.649722,-79.416944,42
Ossington Ave / Bruce St,43.64570236705167,-79.41933192053696,11
Bloor St W / Balmuto St,43.66981064282057,-79.38801106873031,0
Temperance St. Station,43.65074822310989,-79.38013325933063,1
Parliament St / Aberdeen Ave,43.665278,-79.368333,4
Chatham Ave / Byron Ave,43.6798678328407,-79.33424613862303,8
Wakunda Pl / O'Connor Dr,43.71602024377182,-79.3047092517501,4
Tiago Ave / Westview Blvd,43.71101621552703,-79.30675743891624,2
Plaxton Dr / St Clair Ave E,43.70751755961952,-79.30252066313936,3
Victoria Park Ave / Edge Park Ave,43.717678679534906,-79.29961580314475,1
Galbraith Rd / King's College Rd,43.6603874468082,-79.39537831814152,0
Exhibition GO Station,43.6352007,-79.4187711,4
Princes Gate / Nunavut Dr,43.6333523484014,-79.41436313073005,7
800 Fleet St,43.636804,-79.408832,26
